[
  {
    "id": 1,
    "name": "矢筈岳",
    "description": "新潟県の川内山塊を代表する藪山で、『岳人』マイナー12名山の筆頭に挙げられる一座。夏道がなく、残雪期や藪の薄い時期を狙った創造的なルート選びが求められる。",
    "location": ["新潟県"],
    "latitude": 37.512268498846,
    "longitude": 139.26608905869,
    "elevation": 1257.5
  },
  {
    "id": 2,
    "name": "ピリカヌプリ",
    "description": "北海道日高山脈南部にある1,630m峰。静かな稜線歩きの一方で、天候判断と長いアプローチへの備えが必要な、日高らしい奥深さを持つ山。",
    "location": ["北海道"],
    "latitude": 42.40210961344,
    "longitude": 142.96676274204,
    "elevation": 1630
  },
  {
    "id": 3,
    "name": "赤倉岳",
    "description": "群馬県側から迫る上信越の深い山並みにある1,958.9m峰。一般的な名山リストとは少し違う、ルートファインディングと長い行程を楽しむ人向けの一座。",
    "location": ["群馬県"],
    "latitude": 36.960490211204,
    "longitude": 139.14538621902,
    "elevation": 1958.9
  },
  {
    "id": 4,
    "name": "丸山岳",
    "description": "福島県南会津の奥深くにある、日本マイナー12名山の代表格。登山道の薄い長大な稜線歩きと藪が印象的で、秘峰らしい雰囲気を色濃く残している。",
    "location": ["福島県"],
    "latitude": 37.17263381606501,
    "longitude": 139.33478539665998,
    "elevation": 1819.9
  },
  {
    "id": 5,
    "name": "毛猛山",
    "description": "福島県と新潟県の県境に立つ毛猛連山の主峰。一般登山道に頼りにくい県境稜線の奥地にあり、残雪と藪の条件を読みながら歩く山行が似合う。",
    "location": ["福島県", "新潟県"],
    "latitude": 37.256674962191,
    "longitude": 139.17517096978,
    "elevation": 1517.1
  },
  {
    "id": 6,
    "name": "烏帽子山",
    "description": "新潟県の飯豊連峰西方にある、登山道のない1,572.9m峰。奇妙な山容で知られ、残雪期に蒜場山などからつなぐ縦走で狙われることが多い。",
    "location": ["新潟県"],
    "latitude": 37.81372737113299,
    "longitude": 139.59732234478,
    "elevation": 1572.9
  },
  {
    "id": 7,
    "name": "ネコブ山",
    "description": "新潟県会津寄りの山域にある1,794m峰。マイナー12名山の一つとして知られ、長いアプローチと藪を越えてたどり着く静かな山頂が魅力。",
    "location": ["新潟県"],
    "latitude": 37.011361804779,
    "longitude": 139.03337361039,
    "elevation": 1794
  },
  {
    "id": 8,
    "name": "化穴山",
    "description": "山形県と新潟県の県境、朝日連峰北部の奥地にある1,505.9m峰。以東岳周辺の深い山域にあり、渡渉や藪漕ぎを含む長い周回で名を聞く難峰。",
    "location": ["山形県", "新潟県"],
    "latitude": 38.355230396173,
    "longitude": 139.80418394288,
    "elevation": 1505.9
  },
  {
    "id": 9,
    "name": "障子岳",
    "description": "屋久島の永田岳北方に位置する1,549m峰。マイナー12名山の中でも特に難度が高いとされ、読図と藪・地形判断の力が試される一座。",
    "location": ["鹿児島県"],
    "latitude": 30.358958498526,
    "longitude": 130.48588117366,
    "elevation": 1549
  },
  {
    "id": 10,
    "name": "黒部別山",
    "description": "富山県の黒部源流域にある2,353m峰。一般的な人気ルートから外れた黒部の奥にあり、長い行程と重厚な地形を味わえる玄人向けの山。",
    "location": ["富山県"],
    "latitude": 36.611776362159,
    "longitude": 137.66099722754,
    "elevation": 2353
  },
  {
    "id": 11,
    "name": "群別岳",
    "description": "北海道南西部の海に近い山域に立つ1,376.3m峰。海と山の距離が近い独特のスケール感があり、季節と天候の見極めが印象を大きく変える山でもある。",
    "location": ["北海道"],
    "latitude": 43.684784648851,
    "longitude": 141.48769696898,
    "elevation": 1376.3
  },
  {
    "id": 12,
    "name": "羽後朝日岳",
    "description": "秋田県側の奥山にある1,376m峰。大荒沢岳側から藪を越えてつなぐ記録で知られ、静かな山域の奥にぽつりとある終点のような山頂が印象的。",
    "location": ["秋田県"],
    "latitude": 39.610130047105,
    "longitude": 140.77313921528,
    "elevation": 1376
  }
]
