[
  {
    "id": 1,
    "name": "利尻岳",
    "description": "北海道最北の離島・利尻島にそびえる独立峰。海上から見る美しい山容は「利尻富士」とも呼ばれる。",
    "location": ["北海道"],
    "latitude": 45.1717,
    "longitude": 141.2342,
    "elevation": 1721
  },
  {
    "id": 2,
    "name": "羅臼岳",
    "description": "知床半島の最高峰。世界自然遺産・知床の中心に位置し、ヒグマの生息地としても知られる。",
    "location": ["北海道"],
    "latitude": 44.0761,
    "longitude": 145.1231,
    "elevation": 1661
  },
  {
    "id": 3,
    "name": "斜里岳",
    "description": "オホーツク海に面した知床の玄関口に立つ独立峰。山頂からオホーツク海が一望できる。",
    "location": ["北海道"],
    "latitude": 43.8658,
    "longitude": 144.9325,
    "elevation": 1547
  },
  {
    "id": 4,
    "name": "阿寒岳",
    "description": "阿寒国立公園に属する雄阿寒岳。雌阿寒岳とともに阿寒の双峰をなす活火山。",
    "location": ["北海道"],
    "latitude": 43.4547,
    "longitude": 144.1681,
    "elevation": 1499
  },
  {
    "id": 5,
    "name": "大雪山",
    "description": "北海道の屋根とも呼ばれる旭岳を主峰とする山塊。高山植物の宝庫で「神々の遊ぶ庭」とも称される。",
    "location": ["北海道"],
    "latitude": 43.6633,
    "longitude": 142.8578,
    "elevation": 2291
  },
  {
    "id": 6,
    "name": "トムラウシ山",
    "description": "大雪山と十勝連峰の中間に位置する孤高の山。アイヌ語で「花の多い所」を意味し、高山植物が豊富。",
    "location": ["北海道"],
    "latitude": 43.5211,
    "longitude": 142.8111,
    "elevation": 2141
  },
  {
    "id": 7,
    "name": "十勝岳",
    "description": "十勝連峰の主峰で北海道有数の活火山。噴気活動が活発で荒々しい火山景観が広がる。",
    "location": ["北海道"],
    "latitude": 43.4144,
    "longitude": 142.6897,
    "elevation": 2077
  },
  {
    "id": 8,
    "name": "幌尻岳",
    "description": "日高山脈の最高峰。北海道の秘境と呼ばれ、アクセスが困難な百名山の中でも屈指の難関。",
    "location": ["北海道"],
    "latitude": 42.7747,
    "longitude": 142.5994,
    "elevation": 2052
  },
  {
    "id": 9,
    "name": "後方羊蹄山",
    "description": "蝦夷富士とも呼ばれる北海道最大の独立峰。ニセコ連峰と並んで道南の名山。",
    "location": ["北海道"],
    "latitude": 42.8281,
    "longitude": 140.8022,
    "elevation": 1898
  },
  {
    "id": 10,
    "name": "岩木山",
    "description": "津軽富士とも呼ばれる青森県最高峰の独立峰。津軽平野のどこからでも見える信仰の山。",
    "location": ["青森県"],
    "latitude": 40.6553,
    "longitude": 140.3033,
    "elevation": 1625
  },
  {
    "id": 11,
    "name": "八甲田山",
    "description": "青森市の南に広がる複式火山群。ブナの原生林と湿原が美しく、豪雪地帯として知られる。",
    "location": ["青森県"],
    "latitude": 40.6533,
    "longitude": 140.8819,
    "elevation": 1585
  },
  {
    "id": 12,
    "name": "八幡平",
    "description": "岩手・秋田の県境に広がる溶岩台地の山。沼や湿原が点在し、雄大な高原景観が広がる。",
    "location": ["岩手県", "秋田県"],
    "latitude": 39.9544,
    "longitude": 140.8594,
    "elevation": 1614
  },
  {
    "id": 13,
    "name": "岩手山",
    "description": "南部片富士とも呼ばれる岩手県最高峰の活火山。巨大な噴火口が特徴的。",
    "location": ["岩手県"],
    "latitude": 39.8500,
    "longitude": 141.0008,
    "elevation": 2038
  },
  {
    "id": 14,
    "name": "早池峰山",
    "description": "北上山地の最高峰。固有種を含む高山植物の宝庫で、ハヤチネウスユキソウが有名。",
    "location": ["岩手県"],
    "latitude": 39.5761,
    "longitude": 141.2453,
    "elevation": 1917
  },
  {
    "id": 15,
    "name": "鳥海山",
    "description": "出羽富士とも呼ばれる東北第二の高峰。庄内平野と日本海を見渡す雄大な眺望が魅力。",
    "location": ["秋田県", "山形県"],
    "latitude": 39.0986,
    "longitude": 140.0572,
    "elevation": 2236
  },
  {
    "id": 16,
    "name": "月山",
    "description": "出羽三山の一つで山岳信仰の聖地。山頂直下に残る万年雪と高山植物が美しい。",
    "location": ["山形県"],
    "latitude": 38.5592,
    "longitude": 140.0281,
    "elevation": 1984
  },
  {
    "id": 17,
    "name": "朝日岳",
    "description": "朝日連峰の主峰。ブナの原生林と豊かな水が特徴で、縦走路が整備されている。",
    "location": ["山形県", "新潟県"],
    "latitude": 38.2628,
    "longitude": 139.7556,
    "elevation": 1870
  },
  {
    "id": 18,
    "name": "蔵王山",
    "description": "宮城・山形の県境に連なる火山群。お釜と呼ばれるエメラルドグリーンの火口湖が名物。",
    "location": ["宮城県", "山形県"],
    "latitude": 38.1353,
    "longitude": 140.4422,
    "elevation": 1841
  },
  {
    "id": 19,
    "name": "飯豊山",
    "description": "東北最大級の山岳縦走路を誇る信仰の山。豊富な雪解け水と高山植物が美しい。",
    "location": ["山形県", "福島県", "新潟県"],
    "latitude": 37.8333,
    "longitude": 139.7131,
    "elevation": 2105
  },
  {
    "id": 20,
    "name": "吾妻山",
    "description": "磐梯朝日国立公園に属する火山群。西吾妻山を最高点とし、湿原や火山湖が点在する。",
    "location": ["福島県", "山形県"],
    "latitude": 37.7814,
    "longitude": 140.2411,
    "elevation": 2035
  },
  {
    "id": 21,
    "name": "安達太良山",
    "description": "高村光太郎の詩で有名な「ほんとうの空」の山。乳首山とも呼ばれる丸い山頂が特徴。",
    "location": ["福島県"],
    "latitude": 37.6175,
    "longitude": 140.2908,
    "elevation": 1728
  },
  {
    "id": 22,
    "name": "磐梯山",
    "description": "会津富士とも呼ばれる東北有数の名山。1888年の大噴火で形成された裏磐梯の湖沼群が美しい。",
    "location": ["福島県"],
    "latitude": 37.6056,
    "longitude": 140.0836,
    "elevation": 1816
  },
  {
    "id": 23,
    "name": "会津駒ヶ岳",
    "description": "南会津の最高峰。なだらかな山容と湿原に咲く高山植物が印象的な山。",
    "location": ["福島県"],
    "latitude": 36.9928,
    "longitude": 139.3531,
    "elevation": 2133
  },
  {
    "id": 24,
    "name": "那須岳",
    "description": "茶臼岳を主峰とする那須連山。活発な噴気活動が続く活火山で、那須温泉が麓に広がる。",
    "location": ["栃木県"],
    "latitude": 37.1183,
    "longitude": 139.9644,
    "elevation": 1915
  },
  {
    "id": 25,
    "name": "燧ヶ岳",
    "description": "東北最高峰で尾瀬国立公園の最高点。尾瀬ヶ原の湿原を見下ろす展望が素晴らしい。",
    "location": ["福島県"],
    "latitude": 36.9508,
    "longitude": 139.2836,
    "elevation": 2356
  },
  {
    "id": 26,
    "name": "平ヶ岳",
    "description": "深田久弥が「高山植物の天国」と称した山。アクセスの難しさから「秘境の百名山」とも呼ばれる。",
    "location": ["新潟県", "群馬県"],
    "latitude": 36.7531,
    "longitude": 139.1236,
    "elevation": 2141
  },
  {
    "id": 27,
    "name": "巻機山",
    "description": "越後三山の一つ。山頂付近の池塘と草原が美しく、ニセ巻機・牛ヶ岳など複数のピークが連なる。",
    "location": ["新潟県", "群馬県"],
    "latitude": 36.8753,
    "longitude": 138.9281,
    "elevation": 1967
  },
  {
    "id": 28,
    "name": "越後駒ヶ岳",
    "description": "魚沼駒ヶ岳とも呼ばれる越後三山の盟主。越後平野から見える雄大な山容が美しい。",
    "location": ["新潟県"],
    "latitude": 36.9833,
    "longitude": 138.9706,
    "elevation": 2003
  },
  {
    "id": 29,
    "name": "至仏山",
    "description": "尾瀬ヶ原の西に位置する名峰。オゼソウなどの固有植物が生息する蛇紋岩の山。",
    "location": ["群馬県"],
    "latitude": 36.9192,
    "longitude": 139.1892,
    "elevation": 2228
  },
  {
    "id": 30,
    "name": "谷川岳",
    "description": "双耳峰「トマの耳・オキの耳」で知られる関東有数の名峰。世界一の遭難者数で知られる険しい山。",
    "location": ["群馬県", "新潟県"],
    "latitude": 36.8411,
    "longitude": 138.9381,
    "elevation": 1977
  },
  {
    "id": 31,
    "name": "武尊山",
    "description": "上毛三山には含まれないが、群馬を代表する山の一つ。剣ヶ峰や家の串など複数のピークが連なる。",
    "location": ["群馬県"],
    "latitude": 36.7342,
    "longitude": 139.1572,
    "elevation": 2158
  },
  {
    "id": 32,
    "name": "皇海山",
    "description": "日光国立公園に属する深山幽谷の山。沼田側からのルートは特に険しく、修験の山として知られた。",
    "location": ["群馬県", "栃木県"],
    "latitude": 36.6469,
    "longitude": 139.3706,
    "elevation": 2144
  },
  {
    "id": 33,
    "name": "男体山",
    "description": "中禅寺湖の北に聳える日光を代表する火山。二荒山神社の御神体山で山岳信仰の霊峰。",
    "location": ["栃木県"],
    "latitude": 36.7717,
    "longitude": 139.4914,
    "elevation": 2486
  },
  {
    "id": 34,
    "name": "日光白根山",
    "description": "関東以北の最高峰。コバルトブルーの五色沼と荒涼たる山頂の対比が印象的な活火山。",
    "location": ["群馬県", "栃木県"],
    "latitude": 36.7989,
    "longitude": 139.3786,
    "elevation": 2578
  },
  {
    "id": 35,
    "name": "草津白根山",
    "description": "草津温泉の背後に聳える活火山。湯釜と呼ばれる強酸性の火口湖が特徴。",
    "location": ["群馬県"],
    "latitude": 36.6231,
    "longitude": 138.5361,
    "elevation": 2160
  },
  {
    "id": 36,
    "name": "苗場山",
    "description": "山頂に広大な湿原台地を持つ独特な形状の山。かぐらみつまた・田代スキー場が麓に広がる。",
    "location": ["新潟県", "長野県"],
    "latitude": 36.7989,
    "longitude": 138.6897,
    "elevation": 2145
  },
  {
    "id": 37,
    "name": "妙高山",
    "description": "越後富士とも呼ばれる端正な火山。修験道の霊場として栄え、頸城山塊の盟主。",
    "location": ["新潟県"],
    "latitude": 36.8961,
    "longitude": 138.1244,
    "elevation": 2454
  },
  {
    "id": 38,
    "name": "火打山",
    "description": "妙高戸隠連山国立公園の最高峰。天狗の庭と呼ばれる湿原と雷鳥の生息地として知られる。",
    "location": ["新潟県"],
    "latitude": 36.9181,
    "longitude": 138.0842,
    "elevation": 2462
  },
  {
    "id": 39,
    "name": "高妻山",
    "description": "戸隠連峰の最高峰で「戸隠富士」の別名を持つ。十阿弥陀と呼ばれる修験の山。",
    "location": ["長野県", "新潟県"],
    "latitude": 36.8181,
    "longitude": 138.0619,
    "elevation": 2353
  },
  {
    "id": 40,
    "name": "雨飾山",
    "description": "新潟・長野の県境に立つ双耳峰。山頂の笹平湿原と雄大な展望が登山者を魅了する。",
    "location": ["長野県", "新潟県"],
    "latitude": 36.9097,
    "longitude": 137.9239,
    "elevation": 1963
  },
  {
    "id": 41,
    "name": "四阿山",
    "description": "上信国境の最高峰で上毛三山の一つ。あずまやさんとも読み、緩やかな山容が特徴。",
    "location": ["長野県", "群馬県"],
    "latitude": 36.5547,
    "longitude": 138.3997,
    "elevation": 2354
  },
  {
    "id": 42,
    "name": "浅間山",
    "description": "今も活発な噴火活動を続ける日本を代表する活火山。黒煙を上げる雄姿は関東平野からも望める。",
    "location": ["長野県", "群馬県"],
    "latitude": 36.4064,
    "longitude": 138.5236,
    "elevation": 2568
  },
  {
    "id": 43,
    "name": "赤城山",
    "description": "上毛三山の一つで関東平野に広がる盾状火山。大沼・小沼などのカルデラ湖が美しい。",
    "location": ["群馬県"],
    "latitude": 36.5492,
    "longitude": 139.1919,
    "elevation": 1828
  },
  {
    "id": 44,
    "name": "筑波山",
    "description": "万葉集にも詠まれた関東の名山。男体山・女体山の二峰からなり、ガマの油で知られる。",
    "location": ["茨城県"],
    "latitude": 36.2253,
    "longitude": 140.1069,
    "elevation": 877
  },
  {
    "id": 45,
    "name": "両神山",
    "description": "秩父の奥地に聳える鋭鋒。アカヤシオの群生地として知られ、鎖場の多い険しい山。",
    "location": ["埼玉県"],
    "latitude": 36.0572,
    "longitude": 138.8375,
    "elevation": 1723
  },
  {
    "id": 46,
    "name": "雲取山",
    "description": "東京都最高峰で奥多摩の盟主。三都県の境界に位置し、富士山の展望が素晴らしい。",
    "location": ["東京都", "埼玉県", "山梨県"],
    "latitude": 35.8578,
    "longitude": 138.9461,
    "elevation": 2017
  },
  {
    "id": 47,
    "name": "甲武信ヶ岳",
    "description": "甲州・武州・信州の三国境に位置する名峰。千曲川・荒川・笛吹川の源流の山。",
    "location": ["山梨県", "埼玉県", "長野県"],
    "latitude": 35.8689,
    "longitude": 138.6178,
    "elevation": 2475
  },
  {
    "id": 48,
    "name": "金峰山",
    "description": "奥秩父の盟主で信仰の山。山頂の五丈石と呼ばれる巨岩が信仰のシンボル。",
    "location": ["山梨県", "長野県"],
    "latitude": 35.8353,
    "longitude": 138.5689,
    "elevation": 2599
  },
  {
    "id": 49,
    "name": "瑞牆山",
    "description": "奥秩父の花崗岩の名峰。垂直に切り立った岩峰群はクライマーの聖地とも呼ばれる。",
    "location": ["山梨県"],
    "latitude": 35.8619,
    "longitude": 138.5556,
    "elevation": 2230
  },
  {
    "id": 50,
    "name": "大菩薩嶺",
    "description": "甲州の名峰で大菩薩峠が文学の舞台として有名。富士山と南アルプスの展望が素晴らしい。",
    "location": ["山梨県"],
    "latitude": 35.7239,
    "longitude": 138.8419,
    "elevation": 2057
  },
  {
    "id": 51,
    "name": "丹沢山",
    "description": "神奈川県最高峰。首都圏から近い百名山として人気が高く、ブナの原生林が広がる。",
    "location": ["神奈川県"],
    "latitude": 35.4867,
    "longitude": 139.1558,
    "elevation": 1567
  },
  {
    "id": 52,
    "name": "富士山",
    "description": "日本最高峰で言わずと知れた日本の象徴。世界文化遺産にも登録された信仰と芸術の山。",
    "location": ["山梨県", "静岡県"],
    "latitude": 35.3606,
    "longitude": 138.7274,
    "elevation": 3776
  },
  {
    "id": 53,
    "name": "天城山",
    "description": "伊豆半島の最高峰。川端康成の小説「伊豆の踊子」の舞台としても知られる。",
    "location": ["静岡県"],
    "latitude": 34.8867,
    "longitude": 138.9792,
    "elevation": 1406
  },
  {
    "id": 54,
    "name": "甲斐駒ヶ岳",
    "description": "南アルプス最北端の白峰三山に隣接する名峰。花崗岩の白い岩肌が特徴的な端正な山容。",
    "location": ["山梨県", "長野県"],
    "latitude": 35.7578,
    "longitude": 138.2381,
    "elevation": 2967
  },
  {
    "id": 55,
    "name": "仙丈ヶ岳",
    "description": "南アルプスの女王と称される優美な山。カール地形と豊富な高山植物が魅力。",
    "location": ["山梨県", "長野県"],
    "latitude": 35.7097,
    "longitude": 138.1492,
    "elevation": 3033
  },
  {
    "id": 56,
    "name": "鳳凰山",
    "description": "地蔵岳・観音岳・薬師岳の三峰からなる南アルプスの名峰。地蔵岳のオベリスクが印象的。",
    "location": ["山梨県"],
    "latitude": 35.6506,
    "longitude": 138.2342,
    "elevation": 2840
  },
  {
    "id": 57,
    "name": "北岳",
    "description": "富士山に次ぐ日本第二位の高峰。キタダケソウなど固有の高山植物が咲く花の山。",
    "location": ["山梨県"],
    "latitude": 35.6747,
    "longitude": 138.2364,
    "elevation": 3193
  },
  {
    "id": 58,
    "name": "間ノ岳",
    "description": "日本第三位の高峰で白峰三山の中央に位置する。稜線縦走の核心部にあたる存在感ある山。",
    "location": ["山梨県", "静岡県"],
    "latitude": 35.5753,
    "longitude": 138.1953,
    "elevation": 3190
  },
  {
    "id": 59,
    "name": "塩見岳",
    "description": "南アルプス中部の盟主。南アルプスで最も登頂が難しい山の一つとされる秘峰。",
    "location": ["長野県", "静岡県"],
    "latitude": 35.5383,
    "longitude": 138.1619,
    "elevation": 3052
  },
  {
    "id": 60,
    "name": "悪沢岳",
    "description": "荒川三山の最高峰で南アルプス第三位の高峰。東洋のアルプスと称される荒々しい山容。",
    "location": ["静岡県"],
    "latitude": 35.4944,
    "longitude": 138.1681,
    "elevation": 3141
  },
  {
    "id": 61,
    "name": "赤石岳",
    "description": "南アルプスの盟主で赤石山脈の名の由来となった山。ウスユキソウなど豊富な高山植物が咲く。",
    "location": ["静岡県", "長野県"],
    "latitude": 35.4606,
    "longitude": 138.1497,
    "elevation": 3120
  },
  {
    "id": 62,
    "name": "聖岳",
    "description": "南アルプス南部の盟主。聖岳という名は仏教に由来し、修験者が登った信仰の山。",
    "location": ["静岡県", "長野県"],
    "latitude": 35.3883,
    "longitude": 138.1069,
    "elevation": 3013
  },
  {
    "id": 63,
    "name": "光岳",
    "description": "南アルプス最南端の百名山。ライチョウの生息南限の地で、茶臼岳への縦走が人気。",
    "location": ["静岡県", "長野県"],
    "latitude": 35.3244,
    "longitude": 138.0675,
    "elevation": 2591
  },
  {
    "id": 64,
    "name": "木曽駒ヶ岳",
    "description": "中央アルプスの最高峰。ロープウェイでアクセスでき、千畳敷カールの景観が有名。",
    "location": ["長野県"],
    "latitude": 35.7769,
    "longitude": 137.8019,
    "elevation": 2956
  },
  {
    "id": 65,
    "name": "空木岳",
    "description": "中央アルプス南部の名峰。岩稜が続く険しいルートと、駒ヶ根から見上げる存在感が印象的。",
    "location": ["長野県"],
    "latitude": 35.6703,
    "longitude": 137.7936,
    "elevation": 2864
  },
  {
    "id": 66,
    "name": "恵那山",
    "description": "木曽山脈の最南端に位置する古くから信仰を集めた山。日本書紀にも登場する歴史ある名峰。",
    "location": ["長野県", "岐阜県"],
    "latitude": 35.4367,
    "longitude": 137.5928,
    "elevation": 2191
  },
  {
    "id": 67,
    "name": "御嶽山",
    "description": "独立峰として存在感のある活火山。2014年の噴火で多くの犠牲者を出した。古くから霊山として崇拝される。",
    "location": ["長野県", "岐阜県"],
    "latitude": 35.8933,
    "longitude": 137.4800,
    "elevation": 3067
  },
  {
    "id": 68,
    "name": "乗鞍岳",
    "description": "北アルプス南端の巨大火山。バスで2700m以上まで登れ、多くの高山植物が楽しめる。",
    "location": ["長野県", "岐阜県"],
    "latitude": 36.1058,
    "longitude": 137.5533,
    "elevation": 3026
  },
  {
    "id": 69,
    "name": "焼岳",
    "description": "北アルプスで唯一の活火山。大正池を作った1915年の噴火で知られる。上高地からよく見える。",
    "location": ["長野県", "岐阜県"],
    "latitude": 36.2233,
    "longitude": 137.5883,
    "elevation": 2455
  },
  {
    "id": 70,
    "name": "穂高岳",
    "description": "北アルプスの最高峰で日本第三位。奥穂高岳・前穂高岳・北穂高岳などからなる岩の殿堂。",
    "location": ["長野県", "岐阜県"],
    "latitude": 36.2889,
    "longitude": 137.6483,
    "elevation": 3190
  },
  {
    "id": 71,
    "name": "槍ヶ岳",
    "description": "鋭く天を突く山頂が特徴の北アルプスの象徴。日本のマッターホルンとも呼ばれる。",
    "location": ["長野県", "岐阜県"],
    "latitude": 36.3422,
    "longitude": 137.6481,
    "elevation": 3180
  },
  {
    "id": 72,
    "name": "常念岳",
    "description": "安曇野から見える三角形の端正な山容が美しい。松本から見える北アルプスの盟主的な存在。",
    "location": ["長野県"],
    "latitude": 36.3533,
    "longitude": 137.8181,
    "elevation": 2857
  },
  {
    "id": 73,
    "name": "笠ヶ岳",
    "description": "飛騨側から見ると笠を伏せたような山容から名付けられた。独立性の高い存在感ある山。",
    "location": ["岐阜県", "長野県"],
    "latitude": 36.3094,
    "longitude": 137.5494,
    "elevation": 2898
  },
  {
    "id": 74,
    "name": "水晶岳",
    "description": "黒岳とも呼ばれる北アルプスの奥地にある名峰。周囲は3000m級の山々に囲まれた秘境。",
    "location": ["富山県", "長野県"],
    "latitude": 36.4247,
    "longitude": 137.5992,
    "elevation": 2986
  },
  {
    "id": 75,
    "name": "鷲羽岳",
    "description": "北アルプス深部の名峰で山頂直下の鷲羽池が美しい。三俣蓮華岳とセットで登られることが多い。",
    "location": ["富山県", "長野県"],
    "latitude": 36.4314,
    "longitude": 137.6133,
    "elevation": 2924
  },
  {
    "id": 76,
    "name": "黒部五郎岳",
    "description": "北アルプス中部の名峰でカールが特徴的。五郎沢の侵食によってできた壮大なカール地形が見事。",
    "location": ["富山県", "岐阜県", "長野県"],
    "latitude": 36.3811,
    "longitude": 137.5392,
    "elevation": 2840
  },
  {
    "id": 77,
    "name": "薬師岳",
    "description": "北アルプス北部の名峰で薬師如来を祀る信仰の山。広大なカールと豊かな高山植物が特徴。",
    "location": ["富山県"],
    "latitude": 36.4736,
    "longitude": 137.6094,
    "elevation": 2926
  },
  {
    "id": 78,
    "name": "剱岳",
    "description": "日本最難関の百名山で「岩と雪の殿堂」と呼ばれる。垂直に切り立つ岩稜は熟練者でも緊張を強いる。",
    "location": ["富山県"],
    "latitude": 36.6231,
    "longitude": 137.6208,
    "elevation": 2999
  },
  {
    "id": 79,
    "name": "立山",
    "description": "富士山・白山と並ぶ日本三霊山の一つ。立山黒部アルペンルートで高山まで容易にアクセスできる。",
    "location": ["富山県"],
    "latitude": 36.5747,
    "longitude": 137.6178,
    "elevation": 3015
  },
  {
    "id": 80,
    "name": "鹿島槍ヶ岳",
    "description": "後立山連峰の盟主で南北双耳峰が美しい。カクネ里雪渓は日本有数の雪渓として知られる。",
    "location": ["富山県", "長野県"],
    "latitude": 36.5011,
    "longitude": 137.7397,
    "elevation": 2889
  },
  {
    "id": 81,
    "name": "五竜岳",
    "description": "後立山連峰に位置する岩稜の名峰。山頂の五竜の紋章が山名の由来とも言われる。",
    "location": ["富山県", "長野県"],
    "latitude": 36.5300,
    "longitude": 137.7261,
    "elevation": 2814
  },
  {
    "id": 82,
    "name": "白馬岳",
    "description": "後立山連峰の最高峰で大雪渓が有名。ウルップソウなど希少な高山植物の宝庫。",
    "location": ["富山県", "長野県"],
    "latitude": 36.7583,
    "longitude": 137.7572,
    "elevation": 2932
  },
  {
    "id": 83,
    "name": "八ヶ岳",
    "description": "赤岳を最高峰とする火山群。硫黄岳・横岳など特徴的な峰が連なり、コマクサの群落が美しい。",
    "location": ["山梨県", "長野県"],
    "latitude": 35.9700,
    "longitude": 138.3708,
    "elevation": 2899
  },
  {
    "id": 84,
    "name": "蓼科山",
    "description": "諏訪富士とも呼ばれる八ヶ岳連峰北端の独立峰。山頂の広い岩原からの展望が素晴らしい。",
    "location": ["長野県"],
    "latitude": 36.0978,
    "longitude": 138.2908,
    "elevation": 2530
  },
  {
    "id": 85,
    "name": "美ヶ原",
    "description": "溶岩台地の上に広がる高原状の山。電波塔群が立ち並ぶ独特な景観で知られる。",
    "location": ["長野県"],
    "latitude": 36.0872,
    "longitude": 138.0583,
    "elevation": 2034
  },
  {
    "id": 86,
    "name": "霧ヶ峰",
    "description": "車山を最高峰とする広大な高原。ニッコウキスゲの大群落と霧の中の幻想的な景観が名物。",
    "location": ["長野県"],
    "latitude": 36.0900,
    "longitude": 138.1950,
    "elevation": 1925
  },
  {
    "id": 87,
    "name": "白山",
    "description": "富士山・立山とともに日本三霊山に数えられる。古くから山岳信仰の中心地として崇拝される。",
    "location": ["石川県", "岐阜県"],
    "latitude": 36.1544,
    "longitude": 136.7736,
    "elevation": 2702
  },
  {
    "id": 88,
    "name": "荒島岳",
    "description": "福井の屋根と呼ばれる北陸唯一の百名山。ブナの森と荒々しい山容が魅力の信仰の山。",
    "location": ["福井県"],
    "latitude": 35.9897,
    "longitude": 136.7128,
    "elevation": 1524
  },
  {
    "id": 89,
    "name": "伊吹山",
    "description": "滋賀県最高峰で薬草の宝庫として知られる。日本最多積雪記録を持つ豪雪の山。",
    "location": ["滋賀県", "岐阜県"],
    "latitude": 35.4175,
    "longitude": 136.4050,
    "elevation": 1377
  },
  {
    "id": 90,
    "name": "大台ヶ原山",
    "description": "日本有数の多雨地帯に位置する台地状の山。ヒノキの原生林とシカの食害が共存する独特な自然環境。",
    "location": ["奈良県", "三重県"],
    "latitude": 34.1678,
    "longitude": 136.0942,
    "elevation": 1695
  },
  {
    "id": 91,
    "name": "大峰山",
    "description": "修験道の聖地・吉野大峰として知られる信仰の山。山上ヶ岳は今も女人禁制が続く霊山。",
    "location": ["奈良県"],
    "latitude": 34.2803,
    "longitude": 135.8667,
    "elevation": 1915
  },
  {
    "id": 92,
    "name": "大山",
    "description": "伯耆富士とも呼ばれる中国地方最高峰。北壁の荒々しい断崖と南面の豊かなブナ林が対照的。",
    "location": ["鳥取県"],
    "latitude": 35.3706,
    "longitude": 133.5397,
    "elevation": 1729
  },
  {
    "id": 93,
    "name": "剣山",
    "description": "四国第二の高峰で西日本有数の高山植物の宝庫。なだらかな山頂部のテラスからの眺望が素晴らしい。",
    "location": ["徳島県"],
    "latitude": 33.8569,
    "longitude": 134.0794,
    "elevation": 1955
  },
  {
    "id": 94,
    "name": "石鎚山",
    "description": "西日本最高峰で四国随一の霊山。天狗岳の岩峰と鎖場が修験者を呼び込む信仰の山。",
    "location": ["愛媛県"],
    "latitude": 33.7575,
    "longitude": 133.1139,
    "elevation": 1982
  },
  {
    "id": 95,
    "name": "九重山",
    "description": "久住山を主峰とする九州最高峰の火山群。くじゅうとも読み、牧ノ戸峠からのアクセスが便利。",
    "location": ["大分県"],
    "latitude": 33.0911,
    "longitude": 131.2503,
    "elevation": 1791
  },
  {
    "id": 96,
    "name": "祖母山",
    "description": "九州山地の盟主で傾山・大崩山とともに九州三峰の一つ。ニホンカモシカが生息する原始林が残る。",
    "location": ["大分県", "宮崎県"],
    "latitude": 32.8183,
    "longitude": 131.3089,
    "elevation": 1756
  },
  {
    "id": 97,
    "name": "阿蘇山",
    "description": "世界最大級のカルデラを持つ活火山群。中岳は今も噴火を繰り返す九州を代表する山。",
    "location": ["熊本県"],
    "latitude": 32.8839,
    "longitude": 131.1056,
    "elevation": 1592
  },
  {
    "id": 98,
    "name": "霧島山",
    "description": "韓国岳を最高峰とする九州南部の火山群。坂本龍馬の新婚旅行で知られる歴史ある名山。",
    "location": ["宮崎県", "鹿児島県"],
    "latitude": 31.9300,
    "longitude": 130.8617,
    "elevation": 1700
  },
  {
    "id": 99,
    "name": "開聞岳",
    "description": "薩摩富士とも呼ばれる薩摩半島南端の独立峰。海に突き出た端正な円錐形が美しい。",
    "location": ["鹿児島県"],
    "latitude": 31.1781,
    "longitude": 130.5283,
    "elevation": 924
  },
  {
    "id": 100,
    "name": "宮之浦岳",
    "description": "屋久島最高峰で九州最高峰でもある。世界自然遺産・屋久島の象徴で、縄文杉と並ぶ島の宝。",
    "location": ["鹿児島県"],
    "latitude": 30.3339,
    "longitude": 130.4875,
    "elevation": 1936
  }
]
