[
  {
    "id": 1,
    "name": "利尻岳",
    "description": "礼文島と向き合う離島の独立峰で「利尻富士」の別名を持つ。山麓から山頂まで高山植物が豊富で、コースタイムは往復約10時間の上級向けルート。アイヌ語由来の「リイシリ」が島名の語源。",
    "location": ["北海道"],
    "latitude": 45.1717,
    "longitude": 141.2342,
    "elevation": 1721
  },
  {
    "id": 2,
    "name": "羅臼岳",
    "description": "世界自然遺産・知床半島の最高峰。ヒグマが多数生息する原始の森を抜けるルートは上級向けで、コースタイムは往復約10時間。アイヌ語で「獣の骨が多い所」を意味する地名が残る。",
    "location": ["北海道"],
    "latitude": 44.0761,
    "longitude": 145.1231,
    "elevation": 1661
  },
  {
    "id": 3,
    "name": "斜里岳",
    "description": "沢登りを楽しむ登山道で知られるオホーツク海に面した独立峰。清岳荘からの沢コースは滝と渡渉が連続する中級向けルート。アイヌ語の「シャリ（葦原）」が地名の起源とされる。",
    "location": ["北海道"],
    "latitude": 43.8658,
    "longitude": 144.9325,
    "elevation": 1547
  },
  {
    "id": 4,
    "name": "阿寒岳",
    "description": "阿寒国立公園内に位置する活火山・雌阿寒岳を指すことが多く、噴気孔や硫黄の匂いが漂う火山景観が特徴。オンネトーコースは初〜中級向けで、エゾイソツツジやコケモモが山肌を彩る。",
    "location": ["北海道"],
    "latitude": 43.4547,
    "longitude": 144.1681,
    "elevation": 1499
  },
  {
    "id": 5,
    "name": "大雪山",
    "description": "アイヌが「カムイミンタラ（神々の遊ぶ庭）」と呼んだ北海道最高峰・旭岳を主峰とする広大な山塊。エゾノツガザクラやチングルマのお花畑が広がり、ロープウェイを利用すれば初級者も山頂を目指せる。",
    "location": ["北海道"],
    "latitude": 43.6633,
    "longitude": 142.8578,
    "elevation": 2291
  },
  {
    "id": 6,
    "name": "トムラウシ山",
    "description": "アイヌ語で「花の多い所」を意味する名を持つ孤高の名峰。短縮コースでも往復10時間超の上級向けで、チングルマやエゾコザクラのお花畑が高山帯に広がる北海道屈指の花の山。",
    "location": ["北海道"],
    "latitude": 43.5211,
    "longitude": 142.8111,
    "elevation": 2141
  },
  {
    "id": 7,
    "name": "十勝岳",
    "description": "噴気活動が活発な十勝連峰の主峰で、火山礫と噴気孔が続く荒々しい火山景観が広がる。望岳台からの往復コースは中級向けでコースタイム約6時間。山麓の白金温泉は登山後の湯治に最適。",
    "location": ["北海道"],
    "latitude": 43.4144,
    "longitude": 142.6897,
    "elevation": 2077
  },
  {
    "id": 8,
    "name": "幌尻岳",
    "description": "日高山脈の最高峰で渡渉を繰り返す北海道第一の難峰。額平川の増水時は入山不可となり、コースタイムは2泊3日が標準。カール地形に広がるお花畑とヒグマの生息地として知られる秘境。",
    "location": ["北海道"],
    "latitude": 42.7747,
    "longitude": 142.5994,
    "elevation": 2052
  },
  {
    "id": 9,
    "name": "後方羊蹄山",
    "description": "「蝦夷富士」と称される北海道最大の独立峰。4つの登山口から山頂を目指す中級向けのルートが整備され、コースタイムは往復約8時間。高山植物豊富なお鉢めぐりが山頂の醍醐味。",
    "location": ["北海道"],
    "latitude": 42.8281,
    "longitude": 140.8022,
    "elevation": 1898
  },
  {
    "id": 10,
    "name": "岩木山",
    "description": "「津軽富士」と呼ばれる青森県最高峰の独立峰で、岩木山神社の御神体として古くから崇拝される信仰の山。8合目までバスが通じ初級者もアクセスしやすいが、山頂直下は岩場が続く。",
    "location": ["青森県"],
    "latitude": 40.6553,
    "longitude": 140.3033,
    "elevation": 1625
  },
  {
    "id": 11,
    "name": "八甲田山",
    "description": "青森市南に広がる複式火山群で、日本有数のブナ原生林と湿原が美しい。冬期は世界有数の積雪量を誇り、1902年の陸軍雪中行軍遭難事件でも知られる歴史深い山域。夏は初級向けの縦走が楽しめる。",
    "location": ["青森県"],
    "latitude": 40.6533,
    "longitude": 140.8819,
    "elevation": 1585
  },
  {
    "id": 12,
    "name": "八幡平",
    "description": "溶岩台地の上に湿原や池塘が点在する緩やかな山で、初心者も安心して歩ける遊歩道が整備されている。ドラゴンアイとして知られる鏡沼の雪解け模様が春の名物で、チングルマの群落も見事。",
    "location": ["岩手県", "秋田県"],
    "latitude": 39.9544,
    "longitude": 140.8594,
    "elevation": 1614
  },
  {
    "id": 13,
    "name": "岩手山",
    "description": "「南部片富士」とも呼ばれる岩手県最高峰の活火山で、巨大なカルデラが山頂を囲む。柳沢コースや馬返しコースは中級向けで往復約8時間。岩手山神社を起点とする山岳信仰の歴史も深い。",
    "location": ["岩手県"],
    "latitude": 39.8500,
    "longitude": 141.0008,
    "elevation": 2038
  },
  {
    "id": 14,
    "name": "早池峰山",
    "description": "蛇紋岩地帯特有の高山植物の宝庫で、固有種ハヤチネウスユキソウをはじめ希少種が集中する北上山地の最高峰。小田越コースは中級向けで往復約5時間。平安時代から続く山岳信仰の霊山でもある。",
    "location": ["岩手県"],
    "latitude": 39.5761,
    "longitude": 141.2453,
    "elevation": 1917
  },
  {
    "id": 15,
    "name": "鳥海山",
    "description": "「出羽富士」と呼ばれる東北第二の高峰で、山頂部に万年雪と火口湖を抱く活火山。鳥海山大物忌神社の御神体山として崇拝され、登山道沿いにはチョウカイアザミなど固有植物が点在する。",
    "location": ["秋田県", "山形県"],
    "latitude": 39.0986,
    "longitude": 140.0572,
    "elevation": 2236
  },
  {
    "id": 16,
    "name": "月山",
    "description": "出羽三山の一つとして修験道の聖地に数えられ、月山神社が山頂に鎮座する信仰の山。山頂直下には7月まで万年雪が残り、ウサギギクやミヤマキンバイなど豊富な高山植物が咲き誇る。",
    "location": ["山形県"],
    "latitude": 38.5592,
    "longitude": 140.0281,
    "elevation": 1984
  },
  {
    "id": 17,
    "name": "朝日岳",
    "description": "朝日連峰の最高峰で、日本有数のブナ原生林と清冽な渓流が登山者を迎える。大朝日岳への縦走路は中〜上級向けで2泊3日が標準コースタイム。山頂付近にはハクサンイチゲの群落が広がる。",
    "location": ["山形県", "新潟県"],
    "latitude": 38.2628,
    "longitude": 139.7556,
    "elevation": 1870
  },
  {
    "id": 18,
    "name": "蔵王山",
    "description": "「お釜」と呼ばれるエメラルドグリーンの火口湖が象徴の宮城・山形県境の活火山群。蔵王権現の霊山として修験道とも縁が深く、冬季の樹氷（スノーモンスター）は世界的な観光資源。",
    "location": ["宮城県", "山形県"],
    "latitude": 38.1353,
    "longitude": 140.4422,
    "elevation": 1841
  },
  {
    "id": 19,
    "name": "飯豊山",
    "description": "豊富な雪解け水が育む広大なお花畑が山頂稜線に広がる東北の信仰の名山。コースタイムは最短でも2泊3日の上級向け縦走で、ヒナウスユキソウやイイデリンドウなど固有植物も見られる。",
    "location": ["山形県", "福島県", "新潟県"],
    "latitude": 37.8333,
    "longitude": 139.7131,
    "elevation": 2105
  },
  {
    "id": 20,
    "name": "吾妻山",
    "description": "西吾妻山を最高峰とする磐梯朝日国立公園内の火山群で、高山湿原に池塘や火山湖が点在する。ニッコウキスゲの群落が美しく、西吾妻スキー場リフトを利用すれば初級者でもアクセス可能。",
    "location": ["福島県", "山形県"],
    "latitude": 37.7814,
    "longitude": 140.2411,
    "elevation": 2035
  },
  {
    "id": 21,
    "name": "安達太良山",
    "description": "高村光太郎の詩集「智恵子抄」で「ほんとうの空」と詠まれた名峰。ロープウェイを使えば初〜中級向けのコースで山頂を目指せる。火山性ガスが噴出する沼ノ平の荒涼とした景観が印象的。",
    "location": ["福島県"],
    "latitude": 37.6175,
    "longitude": 140.2908,
    "elevation": 1728
  },
  {
    "id": 22,
    "name": "磐梯山",
    "description": "「会津富士」と称される東北有数の名峰で、1888年の大噴火で生まれた裏磐梯の湖沼群が美しい。磐梯山慧日寺が開いた信仰の歴史も深く、猪苗代側から登る中級向けコースが人気。",
    "location": ["福島県"],
    "latitude": 37.6056,
    "longitude": 140.0836,
    "elevation": 1816
  },
  {
    "id": 23,
    "name": "会津駒ヶ岳",
    "description": "南会津の最高峰で山頂付近に広がる湿原が美しく、ミヤマリンドウやワタスゲが咲き誇る。滝沢登山口からの中級向けコースはコースタイム往復約7時間。豪雪地帯ならではの遅い雪解けが高山植物を育む。",
    "location": ["福島県"],
    "latitude": 36.9928,
    "longitude": 139.3531,
    "elevation": 2133
  },
  {
    "id": 24,
    "name": "那須岳",
    "description": "茶臼岳を主峰に活発な噴気活動が続く那須連山の総称。ロープウェイを利用すれば初級者でも茶臼岳山頂を踏め、那須温泉神社を起点とする信仰登山の歴史も古い。朝日岳周辺の岩場は中級向け。",
    "location": ["栃木県"],
    "latitude": 37.1183,
    "longitude": 139.9644,
    "elevation": 1915
  },
  {
    "id": 25,
    "name": "燧ヶ岳",
    "description": "東北最高峰で尾瀬国立公園の最高点に立つ双耳峰。柴安嵓からは尾瀬ヶ原の湿原が一望でき、御池や沼山峠からの中級向けコースが整備されている。ミズバショウとニッコウキスゲの名所としても有名。",
    "location": ["福島県"],
    "latitude": 36.9508,
    "longitude": 139.2836,
    "elevation": 2356
  },
  {
    "id": 26,
    "name": "平ヶ岳",
    "description": "深田久弥が「高山植物の天国」と絶賛した新潟・群馬県境の山。最短でも往復10時間超の上級向けで公共交通機関もなく、百名山随一のアクセス難を誇る。池ノ岳の玉子石と池塘の景色が美しい。",
    "location": ["新潟県", "群馬県"],
    "latitude": 36.7531,
    "longitude": 139.1236,
    "elevation": 2141
  },
  {
    "id": 27,
    "name": "巻機山",
    "description": "越後の名峰で山頂付近に池塘と草原が広がる山上楽園が人気。割引岳・牛ヶ岳へ続く稜線は中級向けで、コースタイムは往復約8時間。古くから機織りの神として信仰を集めた歴史ある山。",
    "location": ["新潟県", "群馬県"],
    "latitude": 36.8753,
    "longitude": 138.9281,
    "elevation": 1967
  },
  {
    "id": 28,
    "name": "越後駒ヶ岳",
    "description": "「魚沼駒ヶ岳」とも呼ばれる越後三山の盟主。枝折峠からの縦走路は上級向けで、山頂稜線にはシャクナゲとハクサンコザクラが咲く。豪雪地帯ならではの急峻な地形と雄大な展望が魅力。",
    "location": ["新潟県"],
    "latitude": 36.9833,
    "longitude": 138.9706,
    "elevation": 2003
  },
  {
    "id": 29,
    "name": "至仏山",
    "description": "尾瀬ヶ原の西に位置する蛇紋岩の山で、岩質に適応したオゼソウやホソバヒナウスユキソウなど固有植物の宝庫。山ノ鼻から山頂を経て鳩待峠へ抜けるルートは中級向けで、登りのみの一方通行規制がある。",
    "location": ["群馬県"],
    "latitude": 36.9192,
    "longitude": 139.1892,
    "elevation": 2228
  },
  {
    "id": 30,
    "name": "谷川岳",
    "description": "「トマの耳・オキの耳」の双耳峰で知られる上越国境の名峰で、岩壁での滑落・遭難者数は世界有数。ロープウェイを使えば中級向けのコースで山頂を踏めるが、西黒尾根からの直登は上級向け。",
    "location": ["群馬県", "新潟県"],
    "latitude": 36.8411,
    "longitude": 138.9381,
    "elevation": 1977
  },
  {
    "id": 31,
    "name": "武尊山",
    "description": "日本武尊（ヤマトタケル）の伝説に由来する山名を持つ上州の名峰。剣ヶ峰や家の串など複数のピークが連なる中〜上級向けの縦走路が整備され、山頂部ではシャクナゲの群落が花を咲かせる。",
    "location": ["群馬県"],
    "latitude": 36.7342,
    "longitude": 139.1572,
    "elevation": 2158
  },
  {
    "id": 32,
    "name": "皇海山",
    "description": "日光国立公園内の深山に位置する難峰で、庚申山から鋸山を経る上級向けの長大な縦走コースが知られる。コースタイムは1泊2日以上が必要で、古くは修験者が修行した霊山としての歴史を持つ。",
    "location": ["群馬県", "栃木県"],
    "latitude": 36.6469,
    "longitude": 139.3706,
    "elevation": 2144
  },
  {
    "id": 33,
    "name": "男体山",
    "description": "中禅寺湖北岸に聳える日光を代表する円錐形の火山で、二荒山神社の御神体山として古来から山岳信仰の対象。5月〜10月のみ登山が許可される中級向けの山で、山頂からの中禅寺湖の眺望が絶景。",
    "location": ["栃木県"],
    "latitude": 36.7717,
    "longitude": 139.4914,
    "elevation": 2486
  },
  {
    "id": 34,
    "name": "日光白根山",
    "description": "関東以北の最高峰で荒涼とした岩稜帯とコバルトブルーの五色沼が対照的な活火山。ロープウェイを使えば初〜中級向けだが、山頂直下の岩場は注意が必要。コマクサやシャクナゲの群落が美しい。",
    "location": ["群馬県", "栃木県"],
    "latitude": 36.7989,
    "longitude": 139.3786,
    "elevation": 2578
  },
  {
    "id": 35,
    "name": "草津白根山",
    "description": "草津温泉の背後に聳える活火山で、強酸性の火口湖「湯釜」は世界有数の酸性度を誇る。火山活動の状況によって入山規制が頻繁に変わる山で、草津白根山のコマクサ群落は県内屈指の規模。",
    "location": ["群馬県"],
    "latitude": 36.6231,
    "longitude": 138.5361,
    "elevation": 2160
  },
  {
    "id": 36,
    "name": "苗場山",
    "description": "山頂に広大な湿原台地を持つ独特な山容で、池塘とワタスゲ・チングルマが織りなす景観が見事。祓川コースは中〜上級向けでコースタイムは往復約9時間。古くから越後の修験者が登拝した信仰の山。",
    "location": ["新潟県", "長野県"],
    "latitude": 36.7989,
    "longitude": 138.6897,
    "elevation": 2145
  },
  {
    "id": 37,
    "name": "妙高山",
    "description": "「越後富士」と呼ばれる端正な成層火山で、妙高山大権現として修験道の霊場として栄えた歴史を持つ。燕温泉や赤倉温泉を起点とする中〜上級向けのコースがあり、コースタイムは往復約8時間。",
    "location": ["新潟県"],
    "latitude": 36.8961,
    "longitude": 138.1244,
    "elevation": 2454
  },
  {
    "id": 38,
    "name": "火打山",
    "description": "妙高戸隠連山国立公園の最高峰で、「天狗の庭」と呼ばれる湿原はハクサンコザクラとワタスゲが咲き誇る花の楽園。ライチョウの生息地としても知られ、笹ヶ峰からの中級向けコースは人気が高い。",
    "location": ["新潟県"],
    "latitude": 36.9181,
    "longitude": 138.0842,
    "elevation": 2462
  },
  {
    "id": 39,
    "name": "高妻山",
    "description": "戸隠連峰の最高峰で「戸隠富士」の別名を持つ。修験道にちなんだ一不動から十阿弥陀の石仏が連なる中〜上級向けのコースは、コースタイム往復約9時間の体力が必要な山。",
    "location": ["長野県", "新潟県"],
    "latitude": 36.8181,
    "longitude": 138.0619,
    "elevation": 2353
  },
  {
    "id": 40,
    "name": "雨飾山",
    "description": "新潟・長野の県境に立つ双耳峰で、山頂の笹平湿原とハクサンコザクラのお花畑が美しい。小谷温泉からの中級向けコースはコースタイム往復約7時間で、周辺は秘湯と紅葉の名所として知られる。",
    "location": ["長野県", "新潟県"],
    "latitude": 36.9097,
    "longitude": 137.9239,
    "elevation": 1963
  },
  {
    "id": 41,
    "name": "四阿山",
    "description": "上信国境の最高峰で「あずまやさん」とも読む。菅平牧場からの中級向けコースはコースタイム往復約6時間。四阿高原の草原を抜けて登るルートで、山頂からは浅間山や北アルプスの展望が広がる。",
    "location": ["長野県", "群馬県"],
    "latitude": 36.5547,
    "longitude": 138.3997,
    "elevation": 2354
  },
  {
    "id": 42,
    "name": "浅間山",
    "description": "今も活発な噴火活動を続ける日本を代表する活火山で、江戸時代の1783年天明噴火は「天明の大飢饉」を招いた。火山規制により山頂への立入は制限されることが多く、前掛山までが一般登山の目標。",
    "location": ["長野県", "群馬県"],
    "latitude": 36.4064,
    "longitude": 138.5236,
    "elevation": 2568
  },
  {
    "id": 43,
    "name": "赤城山",
    "description": "上毛三山の一つで関東平野に広がる盾状火山。大沼・小沼などのカルデラ湖を抱き、赤城神社が大沼湖畔に鎮座する信仰の山。黒檜山への登山道は初〜中級向けで、アカヤシオやレンゲツツジが美しい。",
    "location": ["群馬県"],
    "latitude": 36.5492,
    "longitude": 139.1919,
    "elevation": 1828
  },
  {
    "id": 44,
    "name": "筑波山",
    "description": "万葉集に歌われた「西の富士、東の筑波」の名山で、男体山・女体山の二峰に筑波山神社を祀る信仰の山。ロープウェイやケーブルカーで山頂近くまで行け、初心者でも気軽に登れる関東の人気の山。",
    "location": ["茨城県"],
    "latitude": 36.2253,
    "longitude": 140.1069,
    "elevation": 877
  },
  {
    "id": 45,
    "name": "両神山",
    "description": "秩父の奥座敷に聳える鋭鋒で、アカヤシオが岩場を彩る春の花名所として知られる。八丁尾根コースは鎖場が連続する上級向け、日向大谷コースは中級向けで両神山日尾城の歴史も興味深い。",
    "location": ["埼玉県"],
    "latitude": 36.0572,
    "longitude": 138.8375,
    "elevation": 1723
  },
  {
    "id": 46,
    "name": "雲取山",
    "description": "東京都最高峰で奥多摩の盟主。東京・埼玉・山梨の三都県境に位置し、江戸時代から庶民の信仰登山が盛んだった。鴨沢ルートは初〜中級向けで1泊2日が一般的、山頂からの富士山の展望が素晴らしい。",
    "location": ["東京都", "埼玉県", "山梨県"],
    "latitude": 35.8578,
    "longitude": 138.9461,
    "elevation": 2017
  },
  {
    "id": 47,
    "name": "甲武信ヶ岳",
    "description": "甲州・武州・信州三国の境に位置し、千曲川・荒川・笛吹川という三大河川の源流を持つ水の山。毛木平コースは中級向けで往復約8時間、山頂の笹原から奥秩父の連峰が一望できる。",
    "location": ["山梨県", "埼玉県", "長野県"],
    "latitude": 35.8689,
    "longitude": 138.6178,
    "elevation": 2475
  },
  {
    "id": 48,
    "name": "金峰山",
    "description": "奥秩父の盟主として古くから信仰を集めた山で、山頂に聳える高さ15mの五丈石は信仰のシンボル。大弛峠からのコースは初〜中級向けで往復約4時間、廻り目平からのルートは中〜上級向け。",
    "location": ["山梨県", "長野県"],
    "latitude": 35.8353,
    "longitude": 138.5689,
    "elevation": 2599
  },
  {
    "id": 49,
    "name": "瑞牆山",
    "description": "垂直に切り立つ花崗岩の奇岩群が天に向かって林立する奥秩父の名峰で、クライマーの聖地として名高い。瑞牆山荘からの中〜上級向けコースはコースタイム往復約5時間。岩と苔の深山の雰囲気が魅力。",
    "location": ["山梨県"],
    "latitude": 35.8619,
    "longitude": 138.5556,
    "elevation": 2230
  },
  {
    "id": 50,
    "name": "大菩薩嶺",
    "description": "中里介山の大河小説「大菩薩峠」の舞台として知られる甲州の名峰。上日川峠からの初〜中級向けコースはコースタイム往復約3時間と手軽で、富士山と南アルプスの展望が広がる稜線歩きが快適。",
    "location": ["山梨県"],
    "latitude": 35.7239,
    "longitude": 138.8419,
    "elevation": 2057
  },
  {
    "id": 51,
    "name": "丹沢山",
    "description": "神奈川県最高峰で首都圏から最も近い百名山の一つ。塔ノ岳を経て丹沢山へ至るルートは中〜上級向けで、ブナの原生林とシカの生息地として知られる。山頂付近ではシロヤシオの群落が美しい。",
    "location": ["神奈川県"],
    "latitude": 35.4867,
    "longitude": 139.1558,
    "elevation": 1567
  },
  {
    "id": 52,
    "name": "富士山",
    "description": "日本最高峰にして世界文化遺産にも登録された信仰と芸術の象徴。富士山本宮浅間大社の御神体として古来から崇拝され、江戸時代には富士講が盛んに行われた。7〜9月の開山期間に多くの登山者が訪れる。",
    "location": ["山梨県", "静岡県"],
    "latitude": 35.3606,
    "longitude": 138.7274,
    "elevation": 3776
  },
  {
    "id": 53,
    "name": "天城山",
    "description": "伊豆半島の最高峰で川端康成の小説「伊豆の踊子」の舞台として有名。アマギシャクナゲの群落が5月に見事な花を咲かせ、天城縦走路は初〜中級向けのハイキングコースとして人気が高い。",
    "location": ["静岡県"],
    "latitude": 34.8867,
    "longitude": 138.9792,
    "elevation": 1406
  },
  {
    "id": 54,
    "name": "甲斐駒ヶ岳",
    "description": "南アルプス北端に聳える白い花崗岩の鋭峰で、黒戸尾根コースは日本屈指の急登として知られる上級者向けルート。古くから甲斐駒ヶ岳神社の御神体山として信仰を集め、駒ヶ岳神社が山頂に鎮座する。",
    "location": ["山梨県", "長野県"],
    "latitude": 35.7578,
    "longitude": 138.2381,
    "elevation": 2967
  },
  {
    "id": 55,
    "name": "仙丈ヶ岳",
    "description": "「南アルプスの女王」と称される優美な山容が魅力。仙丈カール・小仙丈カール・藪沢カールの三つのカール地形が発達し、ハクサンイチゲやコイワカガミなど豊富な高山植物が咲く花の名山。",
    "location": ["山梨県", "長野県"],
    "latitude": 35.7097,
    "longitude": 138.1492,
    "elevation": 3033
  },
  {
    "id": 56,
    "name": "鳳凰山",
    "description": "地蔵岳・観音岳・薬師岳の三峰からなる南アルプスの名峰で、地蔵岳頂部に聳えるオベリスク（地蔵岳）が象徴的。古くから鳳凰三山として信仰を集め、青木鉱泉や夜叉神峠からの中〜上級向けルートが整備されている。",
    "location": ["山梨県"],
    "latitude": 35.6506,
    "longitude": 138.2342,
    "elevation": 2840
  },
  {
    "id": 57,
    "name": "北岳",
    "description": "富士山に次ぐ日本第二位の高峰で、固有種キタダケソウをはじめハクサンイチゲやキタダケキンポウゲなど希少な高山植物が咲く花の名山。広河原からの中〜上級向けコースはコースタイム1泊2日が標準。",
    "location": ["山梨県"],
    "latitude": 35.6747,
    "longitude": 138.2364,
    "elevation": 3193
  },
  {
    "id": 58,
    "name": "間ノ岳",
    "description": "日本第三位の高峰で白峰三山（北岳・間ノ岳・農鳥岳）の中央に位置する。北岳山荘を経由する縦走は上級向けで、広大な山頂部は「天空の庭」とも呼ばれ、好天時には南アルプス最高の展望台となる。",
    "location": ["山梨県", "静岡県"],
    "latitude": 35.5753,
    "longitude": 138.1953,
    "elevation": 3190
  },
  {
    "id": 59,
    "name": "塩見岳",
    "description": "南アルプス中部の秘峰で、赤石岳や荒川岳と並ぶ三大岩峰の一つ。最短でも往復12時間超の上級向けで、鳥倉登山口からの長大なアプローチが「最もハードな百名山」とも評される所以。",
    "location": ["長野県", "静岡県"],
    "latitude": 35.5383,
    "longitude": 138.1619,
    "elevation": 3052
  },
  {
    "id": 60,
    "name": "悪沢岳",
    "description": "荒川三山（悪沢岳・中岳・前岳）の最高峰で南アルプス第三位の高峰。東洋のアルプスと称される荒々しい岩稜帯が続き、千枚岳を経由する上級向けの縦走コースは1泊2日以上が標準。",
    "location": ["静岡県"],
    "latitude": 35.4944,
    "longitude": 138.1681,
    "elevation": 3141
  },
  {
    "id": 61,
    "name": "赤石岳",
    "description": "南アルプス（赤石山脈）の名の由来となった山で、山腹に露出する赤色チャート層が特徴。ウスユキソウやコマクサなど豊富な高山植物が咲き、椹島からの上級向け縦走はコースタイム1泊2日以上。",
    "location": ["静岡県", "長野県"],
    "latitude": 35.4606,
    "longitude": 138.1497,
    "elevation": 3120
  },
  {
    "id": 62,
    "name": "聖岳",
    "description": "南アルプス南部の盟主で、「聖」の山名は仏教・修験道に由来するとされる信仰の山。便ヶ島からの長大なアプローチを含む上級向けコースが一般的で、コースタイムは1泊2日以上が必要。",
    "location": ["静岡県", "長野県"],
    "latitude": 35.3883,
    "longitude": 138.1069,
    "elevation": 3013
  },
  {
    "id": 63,
    "name": "光岳",
    "description": "南アルプス最南端の百名山でライチョウ生息地の最南限として知られる。山頂付近のテカリ石と呼ばれる白い花崗岩が山名の由来とされ、茶臼岳への縦走を含む上級向けコースは2泊3日が標準。",
    "location": ["静岡県", "長野県"],
    "latitude": 35.3244,
    "longitude": 138.0675,
    "elevation": 2591
  },
  {
    "id": 64,
    "name": "木曽駒ヶ岳",
    "description": "中央アルプスの最高峰で、千畳敷ロープウェイで標高2611mまで一気に上がれる人気の山。千畳敷カールのお花畑はコイワカガミやミヤマキンバイで彩られ、初〜中級向けのコースタイムは往復約3時間。",
    "location": ["長野県"],
    "latitude": 35.7769,
    "longitude": 137.8019,
    "elevation": 2956
  },
  {
    "id": 65,
    "name": "空木岳",
    "description": "中央アルプス南部に聳える岩稜の名峰で、池山尾根コースは中〜上級向けの長大なルート。コースタイムは往復約12時間の健脚向けで、山頂付近のコマクサ群落と花崗岩の白い山肌が印象的。",
    "location": ["長野県"],
    "latitude": 35.6703,
    "longitude": 137.7936,
    "elevation": 2864
  },
  {
    "id": 66,
    "name": "恵那山",
    "description": "日本書紀に「胞衣を納めた山」として登場する神話ゆかりの名峰で、古くから信仰を集めた歴史を持つ。神坂峠からの中級向けコースは往復約6時間で、山頂付近にはオオシラビソの深い森が広がる。",
    "location": ["長野県", "岐阜県"],
    "latitude": 35.4367,
    "longitude": 137.5928,
    "elevation": 2191
  },
  {
    "id": 67,
    "name": "御嶽山",
    "description": "江戸時代から御嶽講による信仰登山が盛んで、今も多くの白装束の講者が登る霊峰。2014年の水蒸気噴火で58名が犠牲となった。王滝口・黒沢口からの中〜上級向けコースで山頂の剣ヶ峰を目指す。",
    "location": ["長野県", "岐阜県"],
    "latitude": 35.8933,
    "longitude": 137.4800,
    "elevation": 3067
  },
  {
    "id": 68,
    "name": "乗鞍岳",
    "description": "北アルプス南端の巨大火山で、畳平バスターミナル（標高2702m）まで公共バスでアクセスできる百名山随一の手軽さ。コマクサやイワギキョウが咲き、山頂の剣ヶ峰まで初〜中級向けコースで約1時間。",
    "location": ["長野県", "岐阜県"],
    "latitude": 36.1058,
    "longitude": 137.5533,
    "elevation": 3026
  },
  {
    "id": 69,
    "name": "焼岳",
    "description": "北アルプスで唯一の活火山で、1915年の大噴火で梓川をせき止めて大正池を誕生させた。上高地からよく望める独特な山容が観光名所としても親しまれ、中の湯温泉からの中〜上級向けコースが一般的。",
    "location": ["長野県", "岐阜県"],
    "latitude": 36.2233,
    "longitude": 137.5883,
    "elevation": 2455
  },
  {
    "id": 70,
    "name": "穂高岳",
    "description": "北アルプスの最高峰・奥穂高岳（3190m）を中心に前穂高・北穂高・西穂高が連なる岩の殿堂。上高地を起点とする中〜上級向けの縦走路が整備され、ジャンダルムを含むルートは日本最難関の一般登山道。",
    "location": ["長野県", "岐阜県"],
    "latitude": 36.2889,
    "longitude": 137.6483,
    "elevation": 3190
  },
  {
    "id": 71,
    "name": "槍ヶ岳",
    "description": "鋭く天を突く三角錐の山頂が北アルプスの象徴として君臨する名峰。上高地から槍沢を経るコースは中〜上級向けでコースタイム1泊2日。山頂直下の垂直に近い鎖場を上り詰めると達成感は格別。",
    "location": ["長野県", "岐阜県"],
    "latitude": 36.3422,
    "longitude": 137.6481,
    "elevation": 3180
  },
  {
    "id": 72,
    "name": "常念岳",
    "description": "安曇野から見える端正な三角形の山容が「常念坊」の伝説を生んだ北アルプスの名峰。一ノ沢コースは中〜上級向けでコースタイム往復約10時間。山頂からは槍・穂高連峰の大パノラマが広がる。",
    "location": ["長野県"],
    "latitude": 36.3533,
    "longitude": 137.8181,
    "elevation": 2857
  },
  {
    "id": 73,
    "name": "笠ヶ岳",
    "description": "飛騨側から見た笠を伏せたような山容が名の由来で、クリヤ谷コースや笠新道コースは上級向けの急登が続く。コースタイムは1泊2日が標準で、山頂付近のコマクサ群落と360度の展望が登山者を魅了する。",
    "location": ["岐阜県", "長野県"],
    "latitude": 36.3094,
    "longitude": 137.5494,
    "elevation": 2898
  },
  {
    "id": 74,
    "name": "水晶岳",
    "description": "「黒岳」とも呼ばれる北アルプス深奥の秘峰で、高天原温泉へ続く縦走路上に位置する。四方を3000m級の峰々に囲まれた最奥地で、コースタイムは2泊3日以上の上級向け縦走が必要。",
    "location": ["富山県", "長野県"],
    "latitude": 36.4247,
    "longitude": 137.5992,
    "elevation": 2986
  },
  {
    "id": 75,
    "name": "鷲羽岳",
    "description": "北アルプス深部に位置し、山頂直下の鷲羽池越しに槍ヶ岳を望む絶景が有名。三俣蓮華岳とセットで縦走されることが多く、コースタイムは2泊3日以上の上級向け。三俣山荘が山行の拠点となる。",
    "location": ["富山県", "長野県"],
    "latitude": 36.4314,
    "longitude": 137.6133,
    "elevation": 2924
  },
  {
    "id": 76,
    "name": "黒部五郎岳",
    "description": "北アルプス中部に位置し、日本屈指の規模を誇るカール地形が特徴的な名峰。五郎沢の侵食が生んだ広大なカール底にはお花畑が広がり、コースタイム2泊3日以上の上級向け縦走に組み込まれることが多い。",
    "location": ["富山県", "岐阜県", "長野県"],
    "latitude": 36.3811,
    "longitude": 137.5392,
    "elevation": 2840
  },
  {
    "id": 77,
    "name": "薬師岳",
    "description": "薬師如来を祀る信仰の山で、山頂直下に広大なカール地形が発達し、クロユリやハクサンイチゲなど豊富な高山植物が咲く。折立からの中〜上級向けコースはコースタイム往復約10時間で薬師岳山荘が利用できる。",
    "location": ["富山県"],
    "latitude": 36.4736,
    "longitude": 137.6094,
    "elevation": 2926
  },
  {
    "id": 78,
    "name": "剱岳",
    "description": "「岩と雪の殿堂」と呼ばれる日本最難関の百名山で、別山尾根の鎖場や難所カニのタテバイは熟練者でも緊張する上級者専用の山。古代から「針の山」と呼ばれ人が踏み込まなかった霊峰の歴史を持つ。",
    "location": ["富山県"],
    "latitude": 36.6231,
    "longitude": 137.6208,
    "elevation": 2999
  },
  {
    "id": 79,
    "name": "立山",
    "description": "富士山・白山と並ぶ日本三霊山の一つで、雄山神社峰本社が山頂に鎮座する信仰の霊峰。立山黒部アルペンルートで室堂まで容易にアクセスでき、チングルマやハクサンイチゲのお花畑が見事。",
    "location": ["富山県"],
    "latitude": 36.5747,
    "longitude": 137.6178,
    "elevation": 3015
  },
  {
    "id": 80,
    "name": "鹿島槍ヶ岳",
    "description": "後立山連峰の盟主で南北二つの耳を持つ双耳峰が美しい。カクネ里雪渓は日本有数の雪渓として知られ、爺ヶ岳を経由する中〜上級向けの縦走路はコースタイム1泊2日が標準。",
    "location": ["富山県", "長野県"],
    "latitude": 36.5011,
    "longitude": 137.7397,
    "elevation": 2889
  },
  {
    "id": 81,
    "name": "五竜岳",
    "description": "後立山連峰に位置する岩稜の名峰で、山頂付近の「武田菱」の雪形が春の遠見尾根からよく見える。遠見尾根コースはゴンドラを利用した中〜上級向けルートで、コースタイムは往復約8時間。",
    "location": ["富山県", "長野県"],
    "latitude": 36.5300,
    "longitude": 137.7261,
    "elevation": 2814
  },
  {
    "id": 82,
    "name": "白馬岳",
    "description": "後立山連峰の最高峰で白馬大雪渓が有名。ウルップソウやシロウマアサツキなど希少な高山植物の宝庫で、白馬村から猿倉を起点とする中〜上級向けコースが整備されている。",
    "location": ["富山県", "長野県"],
    "latitude": 36.7583,
    "longitude": 137.7572,
    "elevation": 2932
  },
  {
    "id": 83,
    "name": "八ヶ岳",
    "description": "赤岳（2899m）を最高峰とする火山群で、コマクサの群落と岩稜帯が特徴。硫黄岳の爆裂火口や横岳の鎖場など変化に富み、美濃戸口からの中〜上級向けコースはコースタイム1泊2日が標準。",
    "location": ["山梨県", "長野県"],
    "latitude": 35.9700,
    "longitude": 138.3708,
    "elevation": 2899
  },
  {
    "id": 84,
    "name": "蓼科山",
    "description": "「諏訪富士」とも呼ばれる八ヶ岳連峰北端の独立峰。山頂直下の急斜面を越えると広大な岩原が広がり、スズラン峠や女ノ神茶屋からの初〜中級向けコースはコースタイム往復約4時間。",
    "location": ["長野県"],
    "latitude": 36.0978,
    "longitude": 138.2908,
    "elevation": 2530
  },
  {
    "id": 85,
    "name": "美ヶ原",
    "description": "溶岩台地上に広がる高原状の台地山で、王ヶ頭（2034m）を最高点とする。遊歩道が整備された初心者向けの山で、ニッコウキスゲやレンゲツツジの高原のお花畑が初夏に美しく、牧場の牛が放牧される牧歌的な景観が広がる。",
    "location": ["長野県"],
    "latitude": 36.0872,
    "longitude": 138.0583,
    "elevation": 2034
  },
  {
    "id": 86,
    "name": "霧ヶ峰",
    "description": "車山（1925m）を最高峰とする広大な高原で、7月のニッコウキスゲの大群落は全国屈指の規模を誇る。車山ロープウェイで山頂近くまで行ける初心者向けの山で、霧に包まれた幻想的な景観が名の由来。",
    "location": ["長野県"],
    "latitude": 36.0900,
    "longitude": 138.1950,
    "elevation": 1925
  },
  {
    "id": 87,
    "name": "白山",
    "description": "富士山・立山とともに日本三霊山に数えられ、白山比咩神社の御神体山として1300年以上の信仰登山の歴史を持つ。高山植物の宝庫でハクサンコザクラなど白山を名の由来とする植物が多く分布する。",
    "location": ["石川県", "岐阜県"],
    "latitude": 36.1544,
    "longitude": 136.7736,
    "elevation": 2702
  },
  {
    "id": 88,
    "name": "荒島岳",
    "description": "「福井の屋根」と呼ばれる北陸唯一の百名山で、荒島神社の御神体山として古くから信仰される霊峰。ブナの原生林を抜ける中〜上級向けのコースはコースタイム往復約7時間で、山頂からの白山の眺望が絶景。",
    "location": ["福井県"],
    "latitude": 35.9897,
    "longitude": 136.7128,
    "elevation": 1524
  },
  {
    "id": 89,
    "name": "伊吹山",
    "description": "日本最多積雪記録（11m82cm）を持つ豪雪の山で、薬草の宝庫として万葉集や古事記にも登場する歴史ある名峰。山頂部には固有種イブキジャコウソウをはじめ多くの高山植物が咲き、初〜中級向けのコース。",
    "location": ["滋賀県", "岐阜県"],
    "latitude": 35.4175,
    "longitude": 136.4050,
    "elevation": 1377
  },
  {
    "id": 90,
    "name": "大台ヶ原山",
    "description": "年間降水量5000mmを超える日本有数の多雨地帯に位置する台地状の山。ウラスギやヒノキの原生林が広がるが、シカの食害による植生破壊も深刻。遊歩道が整備された初〜中級向けで、コースタイムは約3時間。",
    "location": ["奈良県", "三重県"],
    "latitude": 34.1678,
    "longitude": 136.0942,
    "elevation": 1695
  },
  {
    "id": 91,
    "name": "大峰山",
    "description": "役行者（役小角）が開いた修験道の根本道場で、吉野・大峰として世界遺産にも登録された霊峰。山上ヶ岳は今なお女人禁制が続く日本唯一の修験の聖地で、山伏の白装束姿が今も絶えない信仰の山。",
    "location": ["奈良県"],
    "latitude": 34.2803,
    "longitude": 135.8667,
    "elevation": 1915
  },
  {
    "id": 92,
    "name": "大山",
    "description": "「伯耆富士」と称される中国地方最高峰で、北壁の荒々しい断崖と南面の豊かなダイセンキャラボクの純林が対照的。大山寺を起点とする中級向けの夏山登山道はコースタイム往復約4時間で人気が高い。",
    "location": ["鳥取県"],
    "latitude": 35.3706,
    "longitude": 133.5397,
    "elevation": 1729
  },
  {
    "id": 93,
    "name": "剣山",
    "description": "四国第二の高峰で西日本有数の高山植物の宝庫。リフトを利用すれば山頂直下まで上がれ初〜中級向けのアクセスが容易な山。山頂部の平坦な笹原からの展望は素晴らしく、剣神社への信仰登山の歴史も深い。",
    "location": ["徳島県"],
    "latitude": 33.8569,
    "longitude": 134.0794,
    "elevation": 1955
  },
  {
    "id": 94,
    "name": "石鎚山",
    "description": "西日本最高峰にして四国修験道の総本山・石鎚神社の御神体山。天狗岳の岩峰へ至る鎖場（試しの鎖・一ノ鎖・二ノ鎖・三ノ鎖）は修行の場として崇拝され、山開き大祭には多くの白装束の信者が登拝する。",
    "location": ["愛媛県"],
    "latitude": 33.7575,
    "longitude": 133.1139,
    "elevation": 1982
  },
  {
    "id": 95,
    "name": "九重山",
    "description": "久住山を主峰とする九州最高峰の火山群で、ミヤマキリシマが6月に山肌を染め上げる九州随一の花の山。牧ノ戸峠からの初〜中級向けコースはコースタイム往復約5時間で、多くの登山者が訪れる人気の山。",
    "location": ["大分県"],
    "latitude": 33.0911,
    "longitude": 131.2503,
    "elevation": 1791
  },
  {
    "id": 96,
    "name": "祖母山",
    "description": "九州山地の盟主でニホンカモシカが生息する原生林が残る秘境の山。北谷や尾平からの中〜上級向けコースが整備され、傾山・大崩山とともに「九州三峰」の一角を占める修験道ゆかりの信仰の山。",
    "location": ["大分県", "宮崎県"],
    "latitude": 32.8183,
    "longitude": 131.3089,
    "elevation": 1756
  },
  {
    "id": 97,
    "name": "阿蘇山",
    "description": "世界最大級のカルデラ（東西18km・南北25km）を持つ活火山群で、中岳は今も頻繁に噴火を繰り返す。火口見学は活動状況による規制があり、草千里ヶ浜の広大な草原と烏帽子岳のミヤマキリシマが美しい。",
    "location": ["熊本県"],
    "latitude": 32.8839,
    "longitude": 131.1056,
    "elevation": 1592
  },
  {
    "id": 98,
    "name": "霧島山",
    "description": "韓国岳を最高峰とする九州南部の火山群で、坂本龍馬・お龍が日本初の新婚旅行として訪れた歴史で知られる。ミヤマキリシマが5〜6月に見事な花を咲かせ、えびの高原を起点とする中級向けコースが人気。",
    "location": ["宮崎県", "鹿児島県"],
    "latitude": 31.9300,
    "longitude": 130.8617,
    "elevation": 1700
  },
  {
    "id": 99,
    "name": "開聞岳",
    "description": "「薩摩富士」と呼ばれる薩摩半島南端の端正な円錐形の独立峰。海に向かって裾野を広げる美しい山容が特徴で、螺旋状に山頂を目指す中級向けコースはコースタイム往復約5時間。ツワブキやリュウキュウチクが山肌を覆う。",
    "location": ["鹿児島県"],
    "latitude": 31.1781,
    "longitude": 130.5283,
    "elevation": 924
  },
  {
    "id": 100,
    "name": "宮之浦岳",
    "description": "屋久島および九州の最高峰で、樹齢7000年超の縄文杉が生育する世界自然遺産・屋久島の象徴。屋久杉の巨樹林から亜高山帯のヤクシマシャクナゲのお花畑へと続く上級向けコースは、コースタイム1泊2日以上。",
    "location": ["鹿児島県"],
    "latitude": 30.3339,
    "longitude": 130.4875,
    "elevation": 1936
  }
]
